City_ID,City,Country,Max Temp,Current Description,Lat,Lng,Hotel Name
2,Hermanus,ZA,67.89,overcast clouds,-34.4187,19.2345,Misty Waves Boutique Hotel
6,Mahebourg,MU,79.09,scattered clouds,-20.4081,57.7,Shandrani Beachcomber Resort & Spa
8,Castro,BR,77.88,overcast clouds,-24.7911,-50.0119,CHACARA BAILLY
9,Busselton,AU,52.05,broken clouds,-33.65,115.3333,Observatory Guest House
10,Hobyo,SO,79.05,broken clouds,5.3505,48.5268,Halane Hotel and Restaurent
12,Rikitea,PF,77.49,broken clouds,-23.1203,-134.9692,People ThankYou
13,Riohacha,CO,86.63,overcast clouds,11.5444,-72.9072,Hotel Taroa
17,Bredasdorp,ZA,66.27,overcast clouds,-34.5322,20.0403,Bredasdorp Country Manor
18,Airai,TL,61.39,overcast clouds,-8.9266,125.4092,Juvinal Martin
19,Ribeira Grande,PT,57.6,scattered clouds,38.5167,-28.7,Quinta da Meia Eira
22,Sur,OM,72.34,clear sky,22.5667,59.5289,Sur Plaza Hotel
23,Samarai,PG,81.77,overcast clouds,-10.6167,150.6667,Nuli Sapi
24,Sao Filipe,CV,75.65,few clouds,14.8961,-24.4956,Hotel Xaguate
25,Bandarbeyla,SO,77.11,clear sky,9.4942,50.8122,JABIR HOTEL
27,Georgetown,MY,81.9,scattered clouds,5.4112,100.3354,Cititel Penang
28,Sao Joao Da Barra,BR,86.09,broken clouds,-21.6403,-41.0511,Pousada Porto De Canoas
30,Dunedin,NZ,53.8,scattered clouds,-45.8742,170.5036,Scenic Hotel Southern Cross
31,Atuona,PF,78.67,scattered clouds,-9.8,-139.0333,Villa Enata
32,Bonthe,SL,82.18,broken clouds,7.5264,-12.505,Bonthe Holiday Village
33,Cidreira,BR,75.43,few clouds,-30.1811,-50.2056,Hotel Castelo
35,San Patricio,US,61.21,clear sky,28.017,-97.5169,"Motel 6 Sinton, TX"
36,Butaritari,KI,82.08,overcast clouds,3.0707,172.7902,Isles Sunset Lodge
37,Nabire,ID,76.8,light rain,-3.3667,135.4833,Hotel Nusantara Nabire
40,Punta Arenas,CL,51.91,broken clouds,-53.15,-70.9167,Hotel Hain
41,Lethem,GY,88.25,moderate rain,3.3803,-59.7968,Savannah Inn
45,Cape Town,ZA,68.34,overcast clouds,-33.9258,18.4232,Southern Sun Waterfront Cape Town
50,Port Elizabeth,ZA,72.1,overcast clouds,-33.918,25.5701,39 On Nile Guest House
51,Banda Aceh,ID,79.45,few clouds,5.5577,95.3222,Sulthan Hotel International
53,Patrocinio,BR,80.96,overcast clouds,-18.9439,-46.9925,Guines Palace Hotel 34-99816-3311
54,Lagoa,PT,57.47,overcast clouds,39.05,-27.9833,Casa Das Faias
55,East London,ZA,71.26,moderate rain,-33.0153,27.9116,Tu Casa
56,Tabuk,PH,70.56,overcast clouds,17.4189,121.4443,Golden Berries Hotel and Convention
57,Sal Rei,CV,75.76,broken clouds,16.1833,-22.9167,Marine Club Beach Resort
58,Tomatlan,MX,87.75,scattered clouds,19.9333,-105.25,El Salvial
61,Saint-Philippe,RE,78.39,light rain,-21.3585,55.7679,"Chambres d'hôte ""La Trinité"""
63,Vaini,TO,75.36,light rain,-21.2,-175.2,Keleti Beach Resort
65,Salalah,OM,77.09,clear sky,17.0151,54.0924,"HAMDAN PLAZA HOTEL SALALAH, an HTG Hotel"
68,Bathsheba,BB,77.61,broken clouds,13.2167,-59.5167,Atlantis Hotel
71,Acarau,BR,87.71,overcast clouds,-2.8856,-40.12,castelo pizzaria
72,Kapaa,US,75.52,few clouds,22.0752,-159.319,Sheraton Kauai Coconut Beach Resort
73,Namatanai,PG,79.32,overcast clouds,-3.6667,152.4333,Seagulls Inn Namatani
76,Rio Verde De Mato Grosso,BR,81.19,moderate rain,-18.9181,-54.8442,Hotel Valência
77,Belmonte,BR,82.9,broken clouds,-15.8631,-38.8828,Pousada Monte Carmelo O Pão
78,Carnarvon,AU,69.87,broken clouds,-24.8667,113.6333,Hospitality Carnarvon
83,Avarua,CK,77.05,light rain,-21.2078,-159.775,Paradise Inn
85,Moron,AR,81.01,overcast clouds,-34.6534,-58.6198,Hotel Morón
88,Bridlington,GB,54.28,scattered clouds,54.0831,-0.1919,Expanse Bridlington Seafront Hotel
92,Hobart,AU,51.26,clear sky,-42.8794,147.3294,Mantra on Collins Hobart
93,Touros,BR,88.7,few clouds,-5.1989,-35.4608,INN NEW HORIZON
94,Chimbote,PE,72.7,broken clouds,-9.0853,-78.5783,Hotel Viera Chimbote
97,Bengkulu,ID,75.61,light rain,-3.8004,102.2655,Grage Hotel Bengkulu
98,Harrison,US,57.31,clear sky,30.4091,-89.0436,Residence Inn by Marriott Gulfport-Biloxi Airport
99,Port Alfred,ZA,71.06,broken clouds,-33.5906,26.891,The Halyards Hotel
101,Abha,SA,55.22,clear sky,18.2164,42.5053,Abha Hotel
102,Champasak,LA,67.42,broken clouds,14.75,106.0,Kiat Ngong Wetland BUNGALOW
103,Mar Del Plata,AR,71.87,overcast clouds,-38.0023,-57.5575,Gran Hotel Mar del Plata
104,Atar,MR,81.28,broken clouds,20.5169,-13.0499,Oumou Elghoura
105,Hithadhoo,MV,81.14,overcast clouds,-0.6,73.0833,Scoop Guest House
106,Fortuna,US,50.94,light rain,40.5982,-124.1573,Super 8 by Wyndham Fortuna
107,Lebu,CL,58.19,clear sky,-37.6167,-73.65,Hostal Las Lilas
108,Kirakira,SB,81.39,overcast clouds,-10.4544,161.9205,SanBiz Lodge
109,Hilo,US,75.27,few clouds,19.7297,-155.09,Hilo Hawaiian Hotel
111,Solwezi,ZM,71.29,broken clouds,-12.1688,26.3894,Country Lodge Solwezi
112,Necochea,AR,71.04,overcast clouds,-38.5473,-58.7368,dyd -mar Hotel
113,Guerrero Negro,MX,66.07,clear sky,27.9769,-114.0611,"Casa Laguna, Bed & Breakfast"
114,Puerto Ayora,EC,80.56,overcast clouds,-0.7393,-90.3518,Finch Bay Galapagos Hotel
115,Burnie,AU,54.46,overcast clouds,-41.0667,145.9167,Beachfront Voyager Motor Inn
116,Port Hedland,AU,84.25,clear sky,-20.3167,118.5667,The Esplanade Hotel
117,Denpasar,ID,80.26,broken clouds,-8.65,115.2167,ASTON Denpasar Hotel & Convention Center
122,Sao Felix Do Xingu,BR,81.37,overcast clouds,-6.6447,-51.995,Rio Xingu Camping
123,Naze,JP,62.58,scattered clouds,28.3667,129.4833,Shishime Hotel
125,Viedma,AR,78.89,broken clouds,-40.8135,-62.9967,Hotel Cristal
128,Castelldefels,ES,57.06,clear sky,41.2779,1.9703,Gran Hotel Rey Don Jaime
132,Ulundi,ZA,69.62,light rain,-28.3352,31.4162,Ekhethelo Lodge Ulundi
133,Parati,BR,79.7,light rain,-23.2178,-44.7131,Che Lagarto Paraty
134,Bambous Virieux,MU,79.05,scattered clouds,-20.3428,57.7575,Casa Tia Villa
137,Mount Isa,AU,64.17,clear sky,-20.7333,139.5,ibis Styles Mt Isa Verona
140,Mareeba,AU,74.12,broken clouds,-17.0,145.4333,Trinity Plains Tourist Park
141,Dingle,PH,75.34,broken clouds,10.9995,122.6711,SEGAYA PROPERTY
142,Niquero,CU,85.32,clear sky,20.0431,-77.5828,Islazul Niquero
144,Natal,BR,88.45,scattered clouds,-5.795,-35.2094,Villa Park Hotel | Natal
146,Dhidhdhoo,MV,82.38,overcast clouds,6.8833,73.1,Dhidhoo beach
147,Kahului,US,74.46,scattered clouds,20.8947,-156.47,Maui Seaside Hotel
148,Nelson Bay,AU,63.0,broken clouds,-32.7167,152.15,Mantra Nelson Bay
151,Laguna,US,54.41,light rain,38.421,-121.4238,"Holiday Inn Express & Suites Elk Grove Central - Hwy 99, an IHG Hotel"
155,Constitucion,CL,62.69,clear sky,-35.3333,-72.4167,Hotel Boutique Las Azucenas
156,Cabedelo,BR,86.67,clear sky,-6.9811,-34.8339,Hotel Pigalle
157,Praya,CV,79.34,scattered clouds,14.9215,-23.5087,LT Aparthotel
159,Kapoeta,SS,85.59,overcast clouds,4.7717,33.5903,Eastgate Hotel
160,Lalmohan,BD,67.08,clear sky,22.3384,90.7419,Sundorbon courier service
162,Kitgum,UG,79.97,overcast clouds,3.2783,32.8867,Jaflo Gardens Hotel
163,Sydney,AU,61.9,broken clouds,-33.8679,151.2073,The Grace Sydney
165,Karangampel,ID,81.41,overcast clouds,-6.4622,108.4519,ROOFTOP WAG ALL
166,Sambava,MG,76.59,broken clouds,-14.2667,50.1667,Melrose
169,Algiers,DZ,51.62,few clouds,36.7525,3.042,Sofitel Algiers Hamma Garden
172,Ipixuna,BR,82.35,overcast clouds,-1.7625,-48.8043,Casa da Oscarina
173,Souillac,MU,79.18,scattered clouds,-20.5167,57.5167,Shanti Maurice Resort & Spa
174,Port Lincoln,AU,60.98,broken clouds,-34.7333,135.8667,Port Lincoln Hotel
180,Ngorongoro,TZ,56.8,overcast clouds,-3.2397,35.4875,Simba Special Campsite B
182,Pacific Grove,US,55.51,overcast clouds,36.6177,-121.9166,Lovers Point Inn
183,Isangel,VU,79.54,overcast clouds,-19.55,169.2667,Tanna Lodge
184,Vila Velha,BR,85.95,scattered clouds,-20.3297,-40.2925,Quality Suites Vila Velha
185,Cap Malheureux,MU,79.29,overcast clouds,-19.9842,57.6142,Pereybere Hotel & Spa
186,Chuy,UY,82.2,clear sky,-33.6971,-53.4616,Nuevo Hotel Plaza
187,Cabo San Lucas,MX,78.51,few clouds,22.8909,-109.9124,Hotel Tesoro Los Cabos
189,Pemangkat,ID,78.4,overcast clouds,1.1667,108.9667,Ramah Kost KITA
190,Bindura,ZW,75.87,clear sky,-17.3019,31.3306,Mayfair Lodges and Restaurant
192,Faanui,PF,80.49,broken clouds,-16.4833,-151.75,Bora-Bora Pearl Beach Resort & Spa
193,Pekan,MY,75.31,overcast clouds,3.4836,103.3996,Pekan Budget Hotel
195,Port-Gentil,GA,79.77,overcast clouds,-0.7193,8.7815,Fengshui Residence
198,Lalibela,ET,57.47,clear sky,12.0333,39.0333,Honey Land Hotel Lalibela
199,Esperance,AU,54.93,broken clouds,-33.8667,121.9,Hospitality Esperance
201,Grao Mogol,BR,76.44,moderate rain,-16.5594,-42.8897,Pousada do Eti
205,Acapulco,MX,87.62,clear sky,16.8634,-99.8901,HS Hotsson Smart Acapulco
206,Newport,GB,55.08,overcast clouds,51.5877,-2.9984,ibis budget Newport
207,Lazaro Cardenas,MX,85.35,broken clouds,17.9583,-102.2,quinta antigua
211,San Quintin,MX,62.33,clear sky,30.4833,-115.95,Don Eddie's Landing
217,Geraldton,AU,61.12,scattered clouds,-28.7667,114.6,Broadwater Mariner Resort
218,Victoria,HK,68.32,clear sky,22.2855,114.1577,Mini Hotel Central
219,Mahbubabad,IN,74.07,overcast clouds,17.6167,80.0167,Vedansh Residency
220,Fethiye,TR,64.27,clear sky,36.6217,29.1164,Club & Hotel Letoonia
221,Yanam,IN,76.53,light rain,16.7333,82.2167,The Regency Hotel
222,Namibe,AO,71.89,clear sky,-15.1961,12.1522,Hotel Chik Chik Namibe
223,La Paz,BO,62.58,broken clouds,-16.5,-68.15,Hotel Sagarnaga
227,Bouar,CF,74.66,broken clouds,5.934,15.596,Motel de l'UNITE
228,Lodwar,KE,86.11,overcast clouds,3.1191,35.5973,Solmar Gracious Hotel
229,Road Town,VG,84.29,scattered clouds,18.4167,-64.6167,"ZINGARA 76ft Catamaran, full crew-all included"
230,Lata,PT,58.93,scattered clouds,40.1629,-8.3327,Casa Maquia
232,Kieta,PG,80.55,overcast clouds,-6.2167,155.6333,Uruna Bay Retreat
234,Daru,PG,76.93,overcast clouds,-9.0763,143.2092,Daru Lodge
235,Ponta Do Sol,PT,68.0,scattered clouds,32.6667,-17.1,Hotel do Campo
237,San Policarpo,PH,79.81,overcast clouds,12.1791,125.5072,Agapita M. Nicart
240,Alice Springs,AU,65.75,clear sky,-23.7,133.8833,Desert Palms Alice Springs
242,Upington,ZA,79.18,few clouds,-28.4478,21.2561,River Place Manor
244,Russell,US,60.39,clear sky,32.3502,-85.1999,Macs
245,Biak,ID,77.41,overcast clouds,-0.9131,122.8766,Penginapan Kim
246,Teguise,ES,62.82,clear sky,29.0605,-13.564,B&B La Casona de Nazaret
247,Kavieng,PG,83.05,overcast clouds,-2.5744,150.7967,Nusa Island Retreat
248,Mayo,US,51.08,clear sky,38.8876,-76.5119,Resorts Resource Group International
250,Port Macquarie,AU,60.89,few clouds,-31.4333,152.9167,Rydges Port Macquarie
251,Maturin,VE,80.78,overcast clouds,9.75,-63.1767,Hotel Residencial La Pichincha
252,Vila Franca Do Campo,PT,59.41,broken clouds,37.7167,-25.4333,Pestana Bahia Praia
254,Maryville,US,51.15,clear sky,35.7565,-83.9705,"Holiday Inn Express & Suites Alcoa (Knoxville Airport), an IHG Hotel"
255,Colares,PT,64.33,clear sky,38.7992,-9.4469,Arribas Sintra Hotel
256,Arraial Do Cabo,BR,87.76,clear sky,-22.9661,-42.0278,Pousada Porto Praia
258,Flinders,AU,61.21,scattered clouds,-34.5833,150.8552,Shellharbour Resort & Conference Centre
263,Kavaratti,IN,81.81,broken clouds,10.5669,72.642,Hotels in Lakshadweep Islands
264,Nueva Helvecia,UY,74.75,light rain,-34.3,-57.2333,La Posada de Ofelia
267,Mount Pleasant,US,63.05,clear sky,32.7941,-79.8626,Best Western Patriots Point
269,Mount Gambier,AU,65.35,scattered clouds,-37.8333,140.7667,The Commodore
272,Tautira,PF,82.42,light rain,-17.7333,-149.15,Pension Oaoa
275,Batticaloa,LK,79.3,light rain,7.7102,81.6924,Grand Star Guest House
276,Neiafu,TO,72.28,light rain,-18.65,-173.9833,Mystic Sands Beachfront Accommodation
277,Mitla,MX,68.23,scattered clouds,16.9167,-96.4,Don Cenobio
285,Bilma,NE,70.32,clear sky,18.6853,12.9164,Expeditions Ténére voyages
286,Pontes E Lacerda,BR,79.77,moderate rain,-15.2261,-59.3353,Hotel Bressan
288,Alta Floresta,BR,89.42,scattered clouds,-9.8756,-56.0861,Floresta Amazonica Hotel
289,West Bay,KY,85.06,few clouds,19.3667,-81.4167,Calypso Cove
292,Bafq,IR,52.29,clear sky,31.6128,55.4107,Alamdar Hotel
294,Mul,IN,62.73,few clouds,20.0667,79.6667,Ram Mangar
296,Benito Juarez,MX,67.59,smoke,19.385,-99.165,Hotel Novit
298,Pangai,TO,77.11,light rain,-19.8,-174.35,Ha'apai Beach Resort
299,Haimen,CN,64.29,broken clouds,23.1935,116.6142,Jinghao Business Hotel
300,Port Blair,IN,79.79,few clouds,11.6667,92.75,"Welcomhotel By ITC Hotels, Bay Island, Port Blair"
303,Atambua,ID,75.24,overcast clouds,-9.1061,124.8925,Pastori 1 Jemaat Polycarpus
304,Safaga,EG,73.94,overcast clouds,26.7292,33.9365,Lamar Resort Abu Soma
305,Butterworth,MY,82.0,thunderstorm,5.3991,100.3638,Cititel Penang
306,Hervey Bay,AU,72.01,few clouds,-25.2986,152.8535,Shelly Bay Resort
307,Iquique,CL,69.84,broken clouds,-20.2208,-70.1431,Backpacker`s Hostel Iquique
311,Sibiti,CG,70.63,overcast clouds,-3.6819,13.3499,"LE PAPYRUS (hôtel, bar et restaurant)"
313,La Baule-Escoublac,FR,54.88,overcast clouds,47.2922,-2.364,Hôtel Barrière Le Royal La Baule
314,Faya,SA,55.51,few clouds,18.3851,42.4509,املاك خالد الشعشوع
318,Aracruz,BR,85.21,overcast clouds,-19.8203,-40.2733,OYO Hotel Iramar
321,Torbay,CA,57.76,light rain,47.6666,-52.7314,Gallows Cove
322,Mattru,SL,83.35,overcast clouds,7.6244,-11.8332,"Mondkor Town, Bagbo Chiefdom, Bo District"
323,Veraval,IN,74.79,clear sky,20.9,70.3667,Lords Inn Somnath
327,Okitipupa,NG,81.21,broken clouds,6.5047,4.7839,Coastal Hotel & Suites
328,Praia Da Vitoria,PT,57.45,scattered clouds,38.7333,-27.0667,Hotel Branco I
330,Kudahuvadhoo,MV,81.39,light rain,2.6708,72.8944,Niyama Private Islands Maldives
331,Vao,NC,77.94,light rain,-22.6667,167.4833,Hotel Kou-Bugny
335,Meulaboh,ID,77.07,overcast clouds,4.1363,96.1285,Kost Pria
336,Vallenar,CL,82.31,clear sky,-28.5708,-70.7581,Humacao Bed & Breakfast
338,Phan Thiet,VN,73.63,broken clouds,10.9333,108.1,Hotel Saigon-PT
339,Tezu,IN,61.7,scattered clouds,27.9167,96.1667,Circuit House
340,Garissa,KE,83.5,overcast clouds,-0.4536,39.6401,Sharif Plaza Hotel
342,Nuevitas,CU,85.44,clear sky,21.5453,-77.2644,Hotel Caonaba
344,Katsuura,JP,54.1,clear sky,35.1333,140.3,Katsuura Hotel Mikazuki
345,Itarema,BR,87.21,broken clouds,-2.9248,-39.9167,"Sea Lounge! Bar, Club & Restaurant"
346,Odienne,CI,84.22,clear sky,9.51,-7.5692,Oustaz Vame DIAKITE
347,Abu Dhabi,AE,73.96,scattered clouds,24.4667,54.3667,Ramee Garden Hotel Apartments
353,Pokhara,NP,53.08,scattered clouds,28.2333,83.9833,Butterfly Lodge
355,Kuantan,MY,75.31,few clouds,3.8077,103.326,Hotel Sentral Kuantan
357,Alyangula,AU,83.1,broken clouds,-13.8483,136.4192,Groote Eylandt Lodge
358,Potam,MX,73.99,clear sky,27.6,-110.3833,Ejido La Pimienta
360,Vanimo,PG,79.09,overcast clouds,-2.6741,141.3028,Vahmoneh Lodge Vanimo
362,Benidorm,ES,60.78,few clouds,38.5382,-0.131,Medplaya Hotel Flamingo Oasis
363,Pingshan,CN,56.5,clear sky,22.9938,114.7131,Island Skylight Resort
364,Asyut,EG,69.35,overcast clouds,27.181,31.1837,Florence Hotel Assiut
365,Launceston,AU,55.04,overcast clouds,-41.45,147.1667,Hotel Grand Chancellor Launceston
366,Wajir,KE,86.16,overcast clouds,1.7471,40.0573,Al-bustan Hotel And Restaurant.
367,Kerema,PG,77.38,moderate rain,-7.9631,145.7785,Frena Lodge
368,Araguaina,BR,85.69,light rain,-7.1911,-48.2072,Hotel São Vicente
371,Marsh Harbour,BS,77.4,clear sky,26.5412,-77.0636,Abaco Beach Resort
373,Liverpool,GB,54.77,few clouds,53.4106,-2.9779,Premier Inn Liverpool City Centre (Moorfields) hotel
374,Noyon,FR,50.65,overcast clouds,49.5833,3.0,Hôtel Le Cèdre
377,Oyama,JP,53.58,clear sky,36.3,139.8,Toyoko Inn Oyama-eki Higashi-guchi No.1
378,Ambon,ID,81.84,light rain,-3.6954,128.1814,Swiss-Belhotel Ambon
380,Heilbron,ZA,67.57,overcast clouds,-27.2812,27.9709,Guest house
381,Ierapetra,GR,63.14,scattered clouds,35.01,25.7353,Cretan Villa Hotel & Apartments in Ierapetra Crete.
382,Cartagena,CO,87.42,broken clouds,10.3997,-75.5144,Hotel Colombia Real - Cartagena
383,Pokaran,IN,62.11,clear sky,26.9167,71.9167,Motel Pokaran - RTDC
384,Alofi,NU,75.09,clear sky,-19.0595,-169.9187,Taloa Heights
385,Killybegs,IE,53.46,overcast clouds,54.6333,-8.45,Tara Hotel
386,Camocim,BR,89.15,overcast clouds,-2.9022,-40.8411,Ilha Praia Hotel
387,Trairi,BR,87.6,scattered clouds,-3.2778,-39.2689,janelas do mar
388,Saint George,US,52.54,clear sky,37.1041,-113.5841,Best Western Plus Abbey Inn
394,Mulege,MX,68.18,few clouds,26.8833,-111.9833,Casa Granada
396,Amambai,BR,76.89,overcast clouds,-23.1042,-55.2258,Keren Hotel
397,Takoradi,GH,81.54,broken clouds,4.8845,-1.7554,Raybow International Hotel
398,Lompoc,US,63.12,clear sky,34.6391,-120.4579,"Holiday Inn Express Lompoc, an IHG Hotel"
400,Kloulklubed,PW,79.3,overcast clouds,7.0419,134.2556,Storyboard Beach Resort
401,Mana,GF,76.73,overcast clouds,5.6592,-53.7767,LE SAMANA
402,Guia De Isora,ES,63.23,scattered clouds,28.2115,-16.7795,La Vista Pension
405,Riyadh,SA,57.34,broken clouds,24.6877,46.7219,"InterContinental Riyadh, an IHG Hotel"
407,Boa Vista,BR,84.18,overcast clouds,2.8197,-60.6733,Aipana Plaza Hotel
408,Warkworth,NZ,69.91,light rain,-36.4,174.6667,Bridge House Lodge Bar & Restaurant
409,Waddan,LY,54.72,clear sky,29.1614,16.139,محل الشريف محمد العايب
410,Mancheral,IN,68.25,broken clouds,18.8667,79.4333,Hotel Vaibhav
411,Lake City,US,69.55,overcast clouds,30.1897,-82.6393,Ramada Limited Lake City
413,Bafra,TR,59.83,few clouds,41.5678,35.9069,Sevgi Otel
414,Huarmey,PE,73.36,broken clouds,-10.0681,-78.1522,Hotel Miramar
415,Malakal,SS,83.5,broken clouds,9.5334,31.6605,Nile Palace Hotel
417,Banjarmasin,ID,77.14,overcast clouds,-3.3244,114.591,Swiss-Belhotel Borneo Banjarmasin
422,Buchanan,LR,84.16,scattered clouds,5.8808,-10.0467,Kamaneahn Hotel Inc
423,Algeciras,ES,62.37,few clouds,36.1333,-5.4505,AC Hotel by Marriott Algeciras
425,Homa Bay,KE,75.33,overcast clouds,-0.5273,34.4571,ACK Guest House - Homa Bay
426,Hualmay,PE,72.7,broken clouds,-11.0964,-77.6139,Hotel Villa Kitzia Huacho
429,Kralendijk,BQ,85.98,broken clouds,12.15,-68.2667,Divi Flamingo Beach Resort & Casino
434,Bintulu,MY,75.61,scattered clouds,3.1667,113.0333,900 Boutique INN
435,Gushikawa,JP,69.03,broken clouds,26.3544,127.8686,Kirari Guest House
436,Tainan,TW,65.98,few clouds,22.9908,120.2133,Tie Dao Hotel
437,Antalaha,MG,74.44,light rain,-14.9003,50.2788,Hotel Vitasoa
438,Asfi,MA,61.54,clear sky,32.2994,-9.2372,Hôtel Abda
440,Realeza,BR,87.51,broken clouds,-25.7689,-53.5325,Hotel Renascer
443,Corn Island,NI,80.73,clear sky,12.1694,-83.0418,Big Fish Guest House
445,Bonavista,CA,50.0,light rain,48.6499,-53.1147,Abbott's Bed & Breakfast
446,Marystown,CA,51.85,overcast clouds,47.1666,-55.1483,Marystown Hotel & Convention Centre
450,Minab,IR,62.1,clear sky,27.1467,57.0801,Bam campground
451,Cairns,AU,78.75,broken clouds,-16.9167,145.7667,Mantra Trilogy Cairns
454,Inhambane,MZ,80.11,clear sky,-23.865,35.3833,Oceano
455,Cienaga De Oro,CO,85.87,broken clouds,8.8744,-75.6203,Calle 5 20- 45
456,Tshela,CD,74.39,moderate rain,-4.9833,12.9333,Hotel Mirador
458,Neuquen,AR,71.49,clear sky,-38.9516,-68.0591,Hotel del Comahue
459,Sabha,LY,55.99,clear sky,27.0377,14.4283,Foundation Taaj Asala for Historical Research and Archeology
463,Muros,ES,58.84,scattered clouds,42.7762,-9.0603,Apartment Av. Castelao
464,Codrington,AU,64.38,broken clouds,-38.2667,141.9667,Codrington Gardens Bed And Breakfast
466,San Andres,CO,86.02,few clouds,12.5847,-81.7006,Hotel Arena Blanca
467,Topchanchi,IN,61.21,clear sky,23.9,86.2,SHAAN-E-PUNJAB HOTEL
470,Kailua,US,75.18,overcast clouds,21.4022,-157.7394,Sheffield House Bed & Breakfast
471,Eureka,US,51.21,overcast clouds,40.8021,-124.1637,Eureka Inn Trademark By Wyndham
472,Aswan,EG,78.96,overcast clouds,24.0934,32.907,Nuba Nile
478,Amalapuram,IN,75.83,light rain,16.5833,82.0167,swayamprabha service apartments
479,Janauba,BR,81.59,broken clouds,-15.8025,-43.3089,Ouro Norte Palace Hotel
483,Ocampo,MX,67.95,broken clouds,21.65,-101.5,Hotel Estancia del Vaquero
484,Haapiti,PF,82.13,light rain,-17.5667,-149.8667,Linareva Moorea Beach Resort
485,Byron Bay,AU,70.05,scattered clouds,-28.65,153.6167,Backpackers Inn
486,Caravelas,BR,83.39,scattered clouds,-17.7125,-39.2481,Pousada dos Navegantes
487,Jijiga,ET,59.0,scattered clouds,9.35,42.8,RAMAAS HOTEL
489,Ahipara,NZ,67.06,moderate rain,-35.1667,173.1667,Ahipara Holiday Park
491,Maria Aurora,PH,70.95,overcast clouds,15.7967,121.4737,Attic Travellers Inn
495,Chiang Khong,TH,64.72,few clouds,20.2613,100.4046,Chiangkhong Green Inn Resident
496,Nicoya,CR,87.35,clear sky,10.1483,-85.452,Las Cabinas Del Sueño
497,Bhawanipatna,IN,63.99,scattered clouds,19.9,83.1667,Bhagirathi inn
498,Coquimbo,CL,69.53,few clouds,-29.9533,-71.3436,Punto de encuentro
502,Quelimane,MZ,81.64,clear sky,-17.8786,36.8883,Hotel Flamingo
503,Tingo Maria,PE,81.63,overcast clouds,-9.2895,-76.0088,Hospedaje Paraíso
504,Tambun,ID,80.04,overcast clouds,-6.2641,107.0712,Metland Hotel Bekasi
507,San Cristobal,VE,78.98,overcast clouds,7.7669,-72.225,Posada Villaven C.A.
508,Etchojoa,MX,73.89,clear sky,26.9167,-109.6333,Cuadra RT
509,Padang,ID,77.05,overcast clouds,-0.9492,100.3543,Mercure Padang
510,Barra,BR,85.59,overcast clouds,-11.0894,-43.1417,Motel Albatroz
512,Northam,GB,55.02,overcast clouds,51.0333,-4.2167,Durrant House Hotel
513,Jaguey Grande,CU,83.05,clear sky,22.5269,-81.1286,Hostal lleana
514,Ahuimanu,US,74.91,broken clouds,21.4447,-157.8378,Paradise Bay Resort
515,Rayachoti,IN,69.3,few clouds,14.05,78.75,Swetha lodge
516,Nambucca Heads,AU,62.6,overcast clouds,-30.65,153.0,Marcel Towers Holiday Apartments
517,Agadir,MA,64.85,clear sky,30.4202,-9.5982,Iberostar Founty Beach
518,Itoman,JP,69.82,broken clouds,26.1247,127.6694,Southern Beach Hotel & Resort Okinawa
520,Uong Bi,VN,66.18,overcast clouds,21.0333,106.7833,khach san Trung lien
521,Llanes,ES,52.86,overcast clouds,43.4198,-4.7549,Hotel La Paz
522,Natchitoches,US,56.19,clear sky,31.7668,-93.1335,Super 8 by Wyndham Natchitoches
525,Mindelo,CV,74.75,broken clouds,16.8901,-24.9804,Hotel Gaudi
528,Dire Dawa,ET,66.67,broken clouds,9.5931,41.8661,Samrat Hotel
529,Huntingdon,GB,54.3,overcast clouds,52.3305,-0.1865,Huntingdon Marriott Hotel
531,Chicama,PE,66.74,scattered clouds,-7.8447,-79.1469,Balihai Bungalows
532,Mizque,BO,85.42,broken clouds,-17.941,-65.3402,Hotel Mizque Boutique
536,Gurun,MY,81.73,broken clouds,5.8172,100.4738,The Jerai Hill Resort
538,Hambantota,LK,79.59,overcast clouds,6.1241,81.1185,Bungalow 63
539,Misratah,LY,60.01,broken clouds,32.3754,15.0925,Almasa Hotel
540,Pueblo,US,68.38,clear sky,38.2545,-104.6091,Courtyard by Marriott Pueblo Downtown
541,Rocha,UY,81.43,scattered clouds,-34.4833,-54.3333,Hotel Arrarte
542,Labuhan,ID,78.39,broken clouds,-6.8844,112.2051,PT PPI Lamongan Tambak C
543,Galle,LK,78.31,overcast clouds,6.0367,80.217,Amangalla
545,Kiunga,PG,73.63,overcast clouds,-6.1219,141.2906,Airport Lodge Kiunga
547,Rawson,AR,74.35,few clouds,-43.3002,-65.1023,Hosteria Sampedro
548,San Jose,US,55.02,broken clouds,37.3394,-121.895,The Westin San Jose
549,Nyaunglebin,MM,70.21,clear sky,17.95,96.7333,Thi ha
551,Nago,JP,69.87,overcast clouds,26.5881,127.9761,Hotel Yugaf Inn Okinawa
553,Vila Do Maio,CV,79.59,few clouds,15.1333,-23.2167,Hotel Marilu
554,Maryborough,AU,72.1,clear sky,-25.5333,152.7,Blue Shades Motel
560,La Palma,US,65.5,clear sky,33.8464,-118.0467,La Quinta Inn & Suites by Wyndham Buena Park
561,Kushima,JP,53.11,clear sky,31.4583,131.2333,Hanaoka
565,Honiara,SB,78.48,overcast clouds,-9.4333,159.95,Heritage Park Hotel
566,Greenville,US,55.94,clear sky,35.6127,-77.3663,the 5th Street Inn
567,Srandakan,ID,61.74,scattered clouds,-7.9386,110.2506,Puri Brata
570,Sinnamary,GF,77.36,overcast clouds,5.3833,-52.95,ALETHEIA Appartement Sinnamary
571,Saurimo,AO,68.61,overcast clouds,-9.6608,20.3916,Hotel Kawissa Saurimo
575,Malanje,AO,68.95,moderate rain,-9.5402,16.341,Hotel Ginga
577,Pisco,PE,73.45,scattered clouds,-13.7,-76.2167,Hotel San Isidro Oficial
578,Mitsamiouli,KM,80.82,overcast clouds,-11.3847,43.2844,Foyer ADM
579,Anahuac,MX,56.7,clear sky,27.2333,-100.15,HOTEL SAN FELIPE
580,Don Sak,TH,74.07,scattered clouds,9.3168,99.6918,Sea Sun Moon Hostel
582,Lamar,US,54.36,clear sky,33.6668,-95.5836,Kings Inn Paris TX
584,Ancud,CL,59.43,broken clouds,-41.8697,-73.8203,Hotel Arena Gruesa
587,Ixtapa,MX,81.63,clear sky,20.7,-105.2,Hotel Plaza Providencia
589,Loandjili,CG,77.92,broken clouds,-4.7561,11.8578,Résidence ARCHANGE
590,Xuddur,SO,83.41,overcast clouds,4.1213,43.8894,Banjanay Hotel
594,Tefe,BR,84.31,broken clouds,-3.3542,-64.7114,Aracati Hotel
596,Colonelganj,IN,59.67,scattered clouds,27.1333,81.7,Bangil Setor
597,Karonga,MW,77.86,scattered clouds,-9.9333,33.9333,Sumuka Inn
598,Soure,BR,85.55,broken clouds,-0.7167,-48.5233,Casarão da Amazônia
599,Cam Ranh,VN,75.16,few clouds,11.9214,109.1591,OYO 598 Peony Hotel
601,Tual,ID,84.65,overcast clouds,-5.6667,132.75,Grand Vilia Hotel
602,Balfour,ZA,65.8,overcast clouds,-26.6633,28.5902,Bedz4Headz Guesthouse
603,Broken Hill,AU,74.7,clear sky,-31.95,141.4333,Royal Exchange Hotel
606,Kindu,CD,71.19,overcast clouds,-2.95,25.95,Résidence Okanda
608,Peruibe,BR,81.95,overcast clouds,-24.32,-46.9983,Hotel Pousada Xapuri
609,Candelaria,PH,76.35,overcast clouds,13.9311,121.4233,Casa de Provincia
610,Bedum,NL,50.99,overcast clouds,53.3008,6.6028,Hotel 'T Gemeentehuis
612,Carinhanha,BR,81.81,light rain,-14.3047,-43.765,Hotel União
614,Sola,VU,82.29,moderate rain,-13.8833,167.55,Leumerus Bungalows
617,Tarsus,TR,61.18,overcast clouds,36.9188,34.8784,Osmanli Marco Pasha Hotel
618,Saldanha,ZA,63.45,overcast clouds,-33.0117,17.9442,Blue Bay Lodge
621,Puerto Narino,CO,89.55,overcast clouds,-3.7703,-70.3831,Eware Refugio Amazonico
622,Basoko,CD,77.2,overcast clouds,1.2391,23.616,Jackyna Hotel
623,Ciudad Del Maiz,MX,63.97,overcast clouds,22.4,-99.6,Hotel Casona del General
627,Wenling,CN,51.91,overcast clouds,28.3669,121.36,Hanting Express Wenling Wanchang North Road
628,La Reforma,MX,82.74,few clouds,25.0833,-108.05,Hotel Reforma
630,Coihaique,CL,63.21,scattered clouds,-45.5752,-72.0662,Diego De Almagro Coyhaique
635,Rio Grande,BR,87.91,clear sky,-32.035,-52.0986,Hotel Atlântico Rio Grande
636,Aloleng,PH,78.48,broken clouds,16.1307,119.7824,Steve Walden and Emma Sison-Walden Residence
638,Chandbali,IN,69.24,clear sky,20.7833,86.7667,KABITA HOMES
641,Sunland Park,US,55.81,clear sky,31.7965,-106.58,SpringHill Suites by Marriott El Paso
642,Santa Isabel Do Rio Negro,BR,87.82,overcast clouds,-0.4139,-65.0192,Hotel GSA
643,Arlit,NE,76.06,scattered clouds,18.7369,7.3853,Case de Passage De la Prefecture
646,Gasa,PS,65.91,overcast clouds,31.5,34.4667,رابطة الفنانين الفلسطينيين
647,Kupang,ID,77.58,light rain,-10.1667,123.5833,Hotel On The Rock by Prasanthi
651,Sarangani,PH,83.64,overcast clouds,5.4033,125.4636,Ballistic Islet
652,Pitimbu,BR,86.59,clear sky,-7.4706,-34.8086,Reserva do Abiaí
654,Kruisfontein,ZA,69.89,overcast clouds,-34.0033,24.7314,Oyster Bay House Rental
655,Do Gonbadan,IR,51.89,clear sky,30.3586,50.7981,شبکه بهداشت و درمان گچساران
656,Clarence Town,AU,62.85,scattered clouds,-32.5833,151.7833,River Downs Cottage
658,Pandan,PH,78.37,broken clouds,14.0453,124.1694,Bonifacio Lodge
659,Kununurra,AU,82.38,few clouds,-15.7667,128.7333,Hotel Kununurra
660,Havelock,US,59.05,broken clouds,34.8791,-76.9013,Sherwood Motel
661,Plouzane,FR,54.09,overcast clouds,48.3833,-4.6167,Lymina
662,Menongue,AO,68.81,overcast clouds,-14.6585,17.691,Ritz Lauca
667,Bairiki,KI,81.77,overcast clouds,1.3292,172.9752,Tarawa Boutique Hotel
669,Khanpur,PK,61.86,clear sky,28.6453,70.6567,Ahmad bartan store
671,Caranavi,BO,81.54,broken clouds,-15.8167,-67.55,Hotel Landivar
672,Mpongwe,ZM,76.08,overcast clouds,-13.5091,28.155,GCMF Office & Lodge
674,Nyeri,KE,57.63,overcast clouds,-0.4201,36.9476,Westwood Hotel
676,Andros Town,BS,76.96,clear sky,24.7,-77.7667,Hanks place
677,Quatre Cocos,MU,78.91,overcast clouds,-20.2078,57.7625,Sunrise Attitude Hotel
678,Cabra,ES,58.66,clear sky,37.4725,-4.4421,MS Fuente Las Piedras
679,Los Llanos De Aridane,ES,64.15,broken clouds,28.6585,-17.9182,Valle Aridane
680,Wanning,CN,68.05,few clouds,18.8003,110.3967,Paradise Hotel
